transforms: 
  - 
    header: 
      seq: 0
      stamp: 
        secs: 1627505023
        nsecs: 238113028
      frame_id: "cam_0_optical_frame"
    child_frame_id: "/ar_marker_0"
    transform: 
      translation: 
        x: -0.606623054758
        y: -0.369753928693
        z: 1.9458886688
      rotation: 
        x: 0.999599045316
        y: 0.00683216425766
        z: 0.0267331490796
        w: -0.00635679758349
---
transforms: 
  - 
    header: 
      seq: 0
      stamp: 
        secs: 1627505023
        nsecs: 238113028
      frame_id: "cam_0_optical_frame"
    child_frame_id: "/ar_marker_4"
    transform: 
      translation: 
        x: -0.356431727272
        y: 0.320231341232
        z: 1.21303649505
      rotation: 
        x: 0.999958296161
        y: 0.00867990188109
        z: 0.00280146651894
        w: 0.000465862723893
---
transforms: 
  - 
    header: 
      seq: 153831
      stamp: 
        secs: 1627505023
        nsecs: 378795260
      frame_id: "world"
    child_frame_id: "MiniAHRS"
    transform: 
      translation: 
        x: 0.0
        y: 0.0
        z: 0.0
      rotation: 
        x: -0.0112141688755
        y: 0.00176086605695
        z: 0.409233938028
        w: 0.912358879901
---
transforms: 
  - 
    header: 
      seq: 153832
      stamp: 
        secs: 1627505023
        nsecs: 379218721
      frame_id: "world"
    child_frame_id: "MiniAHRS"
    transform: 
      translation: 
        x: 0.0
        y: 0.0
        z: 0.0
      rotation: 
        x: -0.0112141688755
        y: 0.00176086605695
        z: 0.409233938028
        w: 0.912358879901
---
transforms: 
  - 
    header: 
      seq: 153833
      stamp: 
        secs: 1627505023
        nsecs: 379441503
      frame_id: "world"
    child_frame_id: "MiniAHRS"
    transform: 
      translation: 
        x: 0.0
        y: 0.0
        z: 0.0
      rotation: 
        x: -0.0112141688755
        y: 0.00176086605695
        z: 0.409233938028
        w: 0.912358879901
---
transforms: 
  - 
    header: 
      seq: 153834
      stamp: 
        secs: 1627505023
        nsecs: 379627970
      frame_id: "world"
    child_frame_id: "MiniAHRS"
    transform: 
      translation: 
        x: 0.0
        y: 0.0
        z: 0.0
      rotation: 
        x: -0.0112143224974
        y: 0.00175988742939
        z: 0.409313554801
        w: 0.912323164029
---
transforms: 
  - 
    header: 
      seq: 153835
      stamp: 
        secs: 1627505023
        nsecs: 379813519
      frame_id: "world"
    child_frame_id: "MiniAHRS"
    transform: 
      translation: 
        x: 0.0
        y: 0.0
        z: 0.0
      rotation: 
        x: -0.0112143224974
        y: 0.00175988742939
        z: 0.409313554801
        w: 0.912323164029
---
transforms: 
  - 
    header: 
      seq: 153836
      stamp: 
        secs: 1627505023
        nsecs: 380056586
      frame_id: "world"
    child_frame_id: "MiniAHRS"
    transform: 
      translation: 
        x: 0.0
        y: 0.0
        z: 0.0
      rotation: 
        x: -0.0112143224974
        y: 0.00175988742939
        z: 0.409313554801
        w: 0.912323164029
---
transforms: 
  - 
    header: 
      seq: 153837
      stamp: 
        secs: 1627505023
        nsecs: 380239514
      frame_id: "world"
    child_frame_id: "MiniAHRS"
    transform: 
      translation: 
        x: 0.0
        y: 0.0
        z: 0.0
      rotation: 
        x: -0.0112500324156
        y: 0.00183950684779
        z: 0.409314089301
        w: 0.912322327516
---
transforms: 
  - 
    header: 
      seq: 153838
      stamp: 
        secs: 1627505023
        nsecs: 380504401
      frame_id: "world"
    child_frame_id: "MiniAHRS"
    transform: 
      translation: 
        x: 0.0
        y: 0.0
        z: 0.0
      rotation: 
        x: -0.0112501929001
        y: 0.00183852509026
        z: 0.409393702885
        w: 0.91228660465
---
transforms: 
  - 
    header: 
      seq: 153839
      stamp: 
        secs: 1627505023
        nsecs: 380784205
      frame_id: "world"
    child_frame_id: "MiniAHRS"
    transform: 
      translation: 
        x: 0.0
        y: 0.0
        z: 0.0
      rotation: 
        x: -0.0112501929001
        y: 0.00183852509026
        z: 0.409393702885
        w: 0.91228660465
---
transforms: 
  - 
    header: 
      seq: 153840
      stamp: 
        secs: 1627505023
        nsecs: 380979985
      frame_id: "world"
    child_frame_id: "MiniAHRS"
    transform: 
      translation: 
        x: 0.0
        y: 0.0
        z: 0.0
      rotation: 
        x: -0.0112501929001
        y: 0.00183852509026
        z: 0.409393702885
        w: 0.91228660465
---
transforms: 
  - 
    header: 
      seq: 153841
      stamp: 
        secs: 1627505023
        nsecs: 381159775
      frame_id: "world"
    child_frame_id: "MiniAHRS"
    transform: 
      translation: 
        x: 0.0
        y: 0.0
        z: 0.0
      rotation: 
        x: -0.0112501929001
        y: 0.00183852509026
        z: 0.409393702885
        w: 0.91228660465
---
transforms: 
  - 
    header: 
      seq: 0
      stamp: 
        secs: 1627505023
        nsecs: 238113028
      frame_id: "marker_0"
    child_frame_id: "/base_link"
    transform: 
      translation: 
        x: 2.07845991987
        y: 0.608172190574
        z: 0.371303374579
      rotation: 
        x: 0.520147935577
        y: -0.486189859187
        z: -0.48626198351
        w: 0.506571642842
---
transforms: 
  - 
    header: 
      seq: 0
      stamp: 
        secs: 1627505023
        nsecs: 238113028
      frame_id: "marker_4"
    child_frame_id: "/base_link"
    transform: 
      translation: 
        x: 1.34635689841
        y: 0.357397790385
        z: -0.319265266335
      rotation: 
        x: 0.505883930925
        y: -0.494002103906
        z: -0.502752033482
        w: 0.497276344298
---
transforms: 
  - 
    header: 
      seq: 0
      stamp: 
        secs: 1627505023
        nsecs: 287982470
      frame_id: "cam_0_optical_frame"
    child_frame_id: "/ar_marker_0"
    transform: 
      translation: 
        x: -0.607072192572
        y: -0.370031916143
        z: 1.94558411199
      rotation: 
        x: 0.999616643601
        y: 0.00687741431572
        z: 0.0264594366333
        w: -0.00437781018433
---
transforms: 
  - 
    header: 
      seq: 0
      stamp: 
        secs: 1627505023
        nsecs: 287982470
      frame_id: "cam_0_optical_frame"
    child_frame_id: "/ar_marker_4"
    transform: 
      translation: 
        x: -0.35647973085
        y: 0.319459314167
        z: 1.21131140617
      rotation: 
        x: 0.999955700802
        y: 0.00877414266326
        z: 0.00244702998819
        w: -0.00237126521755
---
transforms: 
  - 
    header: 
      seq: 153842
      stamp: 
        secs: 1627505023
        nsecs: 425984976
      frame_id: "world"
    child_frame_id: "MiniAHRS"
    transform: 
      translation: 
        x: 0.0
        y: 0.0
        z: 0.0
      rotation: 
        x: -0.0112501929001
        y: 0.00183852509026
        z: 0.409393702885
        w: 0.91228660465
---
transforms: 
  - 
    header: 
      seq: 153843
      stamp: 
        secs: 1627505023
        nsecs: 426368502
      frame_id: "world"
    child_frame_id: "MiniAHRS"
    transform: 
      translation: 
        x: 0.0
        y: 0.0
        z: 0.0
      rotation: 
        x: -0.0112501929001
        y: 0.00183852509026
        z: 0.409393702885
        w: 0.91228660465
---
transforms: 
  - 
    header: 
      seq: 153844
      stamp: 
        secs: 1627505023
        nsecs: 426535171
      frame_id: "world"
    child_frame_id: "MiniAHRS"
    transform: 
      translation: 
        x: 0.0
        y: 0.0
        z: 0.0
      rotation: 
        x: -0.0112503532988
        y: 0.00183754331872
        z: 0.409473313351
        w: 0.912250874836
---
transforms: 
  - 
    header: 
      seq: 153845
      stamp: 
        secs: 1627505023
        nsecs: 426559725
      frame_id: "world"
    child_frame_id: "MiniAHRS"
    transform: 
      translation: 
        x: 0.0
        y: 0.0
        z: 0.0
      rotation: 
        x: -0.0112503532988
        y: 0.00183754331872
        z: 0.409473313351
        w: 0.912250874836
---
transforms: 
  - 
    header: 
      seq: 153846
      stamp: 
        secs: 1627505023
        nsecs: 426570088
      frame_id: "world"
    child_frame_id: "MiniAHRS"
    transform: 
      translation: 
        x: 0.0
        y: 0.0
        z: 0.0
      rotation: 
        x: -0.0112503532988
        y: 0.00183754331872
        z: 0.409473313351
        w: 0.912250874836
---
transforms: 
  - 
    header: 
      seq: 153847
      stamp: 
        secs: 1627505023
        nsecs: 426579524
      frame_id: "world"
    child_frame_id: "MiniAHRS"
    transform: 
      translation: 
        x: 0.0
        y: 0.0
        z: 0.0
      rotation: 
        x: -0.0112503532988
        y: 0.00183754331872
        z: 0.409473313351
        w: 0.912250874836
---
transforms: 
  - 
    header: 
      seq: 153848
      stamp: 
        secs: 1627505023
        nsecs: 426590374
      frame_id: "world"
    child_frame_id: "MiniAHRS"
    transform: 
      translation: 
        x: 0.0
        y: 0.0
        z: 0.0
      rotation: 
        x: -0.0112503532988
        y: 0.00183754331872
        z: 0.409473313351
        w: 0.912250874836
---
transforms: 
  - 
    header: 
      seq: 153849
      stamp: 
        secs: 1627505023
        nsecs: 426609371
      frame_id: "world"
    child_frame_id: "MiniAHRS"
    transform: 
      translation: 
        x: 0.0
        y: 0.0
        z: 0.0
      rotation: 
        x: -0.0112503532988
        y: 0.00183754331872
        z: 0.409473313351
        w: 0.912250874836
---
transforms: 
  - 
    header: 
      seq: 153850
      stamp: 
        secs: 1627505023
        nsecs: 426988457
      frame_id: "world"
    child_frame_id: "MiniAHRS"
    transform: 
      translation: 
        x: 0.0
        y: 0.0
        z: 0.0
      rotation: 
        x: -0.0112505136119
        y: 0.00183656153319
        z: 0.409552920698
        w: 0.912215138075
---
transforms: 
  - 
    header: 
      seq: 153851
      stamp: 
        secs: 1627505023
        nsecs: 427082667
      frame_id: "world"
    child_frame_id: "MiniAHRS"
    transform: 
      translation: 
        x: 0.0
        y: 0.0
        z: 0.0
      rotation: 
        x: -0.0112505136119
        y: 0.00183656153319
        z: 0.409552920698
        w: 0.912215138075
---
transforms: 
  - 
    header: 
      seq: 153852
      stamp: 
        secs: 1627505023
        nsecs: 427098672
      frame_id: "world"
    child_frame_id: "MiniAHRS"
    transform: 
      translation: 
        x: 0.0
        y: 0.0
        z: 0.0
      rotation: 
        x: -0.0112505136119
        y: 0.00183656153319
        z: 0.409552920698
        w: 0.912215138075
---
transforms: 
  - 
    header: 
      seq: 153853
      stamp: 
        secs: 1627505023
        nsecs: 427108852
      frame_id: "world"
    child_frame_id: "MiniAHRS"
    transform: 
      translation: 
        x: 0.0
        y: 0.0
        z: 0.0
      rotation: 
        x: -0.0112505136119
        y: 0.00183656153319
        z: 0.409552920698
        w: 0.912215138075
---
transforms: 
  - 
    header: 
      seq: 0
      stamp: 
        secs: 1627505023
        nsecs: 287982470
      frame_id: "marker_0"
    child_frame_id: "/base_link"
    transform: 
      translation: 
        x: 2.07815478422
        y: 0.608621085543
        z: 0.371581119414
      rotation: 
        x: 0.519053126121
        y: -0.485324165721
        z: -0.487419859258
        w: 0.50741126045
---
transforms: 
  - 
    header: 
      seq: 0
      stamp: 
        secs: 1627505023
        nsecs: 287982470
      frame_id: "marker_4"
    child_frame_id: "/base_link"
    transform: 
      translation: 
        x: 1.34463115761
        y: 0.357444419724
        z: -0.318494613249
      rotation: 
        x: 0.507171238968
        y: -0.495548300852
        z: -0.50155665308
        w: 0.495631051931
---
transforms: 
  - 
    header: 
      seq: 153854
      stamp: 
        secs: 1627505023
        nsecs: 472177773
      frame_id: "world"
    child_frame_id: "MiniAHRS"
    transform: 
      translation: 
        x: 0.0
        y: 0.0
        z: 0.0
      rotation: 
        x: -0.0112864114621
        y: 0.00191518666813
        z: 0.409633056015
        w: 0.912178550721
---
transforms: 
  - 
    header: 
      seq: 153855
      stamp: 
        secs: 1627505023
        nsecs: 472535837
      frame_id: "world"
    child_frame_id: "MiniAHRS"
    transform: 
      translation: 
        x: 0.0
        y: 0.0
        z: 0.0
      rotation: 
        x: -0.0112864114621
        y: 0.00191518666813
        z: 0.409633056015
        w: 0.912178550721
---
transforms: 
  - 
    header: 
      seq: 153856
      stamp: 
        secs: 1627505023
        nsecs: 472706223
      frame_id: "world"
    child_frame_id: "MiniAHRS"
    transform: 
      translation: 
        x: 0.0
        y: 0.0
        z: 0.0
      rotation: 
        x: -0.0112864114621
        y: 0.00191518666813
        z: 0.409633056015
        w: 0.912178550721
---
transforms: 
  - 
    header: 
      seq: 153857
      stamp: 
        secs: 1627505023
        nsecs: 472826081
      frame_id: "world"
    child_frame_id: "MiniAHRS"
    transform: 
      translation: 
        x: 0.0
        y: 0.0
        z: 0.0
      rotation: 
        x: -0.0112864114621
        y: 0.00191518666813
        z: 0.409633056015
        w: 0.912178550721
---
transforms: 
  - 
    header: 
      seq: 153858
      stamp: 
        secs: 1627505023
        nsecs: 472941457
      frame_id: "world"
    child_frame_id: "MiniAHRS"
    transform: 
      translation: 
        x: 0.0
        y: 0.0
        z: 0.0
      rotation: 
        x: -0.0112865785507
        y: 0.00191420173563
        z: 0.409712657051
        w: 0.91214280002
---
transforms: 
  - 
    header: 
      seq: 153859
      stamp: 
        secs: 1627505023
        nsecs: 473076270
      frame_id: "world"
    child_frame_id: "MiniAHRS"
    transform: 
      translation: 
        x: 0.0
        y: 0.0
        z: 0.0
      rotation: 
        x: -0.0112865785507
        y: 0.00191420173563
        z: 0.409712657051
        w: 0.91214280002
---
transforms: 
  - 
    header: 
      seq: 153860
      stamp: 
        secs: 1627505023
        nsecs: 473202326
      frame_id: "world"
    child_frame_id: "MiniAHRS"
    transform: 
      translation: 
        x: 0.0
        y: 0.0
        z: 0.0
      rotation: 
        x: -0.0112865785507
        y: 0.00191420173563
        z: 0.409712657051
        w: 0.91214280002
---
transforms: 
  - 
    header: 
      seq: 153861
      stamp: 
        secs: 1627505023
        nsecs: 473328443
      frame_id: "world"
    child_frame_id: "MiniAHRS"
    transform: 
      translation: 
        x: 0.0
        y: 0.0
        z: 0.0
      rotation: 
        x: -0.0112867455533
        y: 0.00191321678856
        z: 0.409792254966
        w: 0.912107042373
---
transforms: 
  - 
    header: 
      seq: 153862
      stamp: 
        secs: 1627505023
        nsecs: 473460469
      frame_id: "world"
    child_frame_id: "MiniAHRS"
    transform: 
      translation: 
        x: 0.0
        y: 0.0
        z: 0.0
      rotation: 
        x: -0.0112867455533
        y: 0.00191321678856
        z: 0.409792254966
        w: 0.912107042373
---
transforms: 
  - 
    header: 
      seq: 153863
      stamp: 
        secs: 1627505023
        nsecs: 473624219
      frame_id: "world"
    child_frame_id: "MiniAHRS"
    transform: 
      translation: 
        x: 0.0
        y: 0.0
        z: 0.0
      rotation: 
        x: -0.0112867455533
        y: 0.00191321678856
        z: 0.409792254966
        w: 0.912107042373
---
transforms: 
  - 
    header: 
      seq: 153864
      stamp: 
        secs: 1627505023
        nsecs: 473794792
      frame_id: "world"
    child_frame_id: "MiniAHRS"
    transform: 
      translation: 
        x: 0.0
        y: 0.0
        z: 0.0
      rotation: 
        x: -0.0112867455533
        y: 0.00191321678856
        z: 0.409792254966
        w: 0.912107042373
---
transforms: 
  - 
    header: 
      seq: 153865
      stamp: 
        secs: 1627505023
        nsecs: 473948825
      frame_id: "world"
    child_frame_id: "MiniAHRS"
    transform: 
      translation: 
        x: 0.0
        y: 0.0
        z: 0.0
      rotation: 
        x: -0.01128691247
        y: 0.00191223182692
        z: 0.409871849761
        w: 0.912071277779
---
transforms: 
  - 
    header: 
      seq: 0
      stamp: 
        secs: 1627505023
        nsecs: 337611454
      frame_id: "cam_0_optical_frame"
    child_frame_id: "/ar_marker_0"
    transform: 
      translation: 
        x: -0.607786334353
        y: -0.370188194642
        z: 1.94462293866
      rotation: 
        x: 0.999592544755
        y: 0.00689037599279
        z: 0.0269068700223
        w: -0.00657932624991
---
transforms: 
  - 
    header: 
      seq: 0
      stamp: 
        secs: 1627505023
        nsecs: 337611454
      frame_id: "cam_0_optical_frame"
    child_frame_id: "/ar_marker_4"
    transform: 
      translation: 
        x: -0.356845400348
        y: 0.319099660434
        z: 1.21072878102
      rotation: 
        x: 0.99995940929
        y: 0.00838073303274
        z: 0.00285698802922
        w: -0.00166754461698
---
transforms: 
  - 
    header: 
      seq: 0
      stamp: 
        secs: 1627505023
        nsecs: 387570218
      frame_id: "cam_0_optical_frame"
    child_frame_id: "/ar_marker_0"
    transform: 
      translation: 
        x: -0.608524591168
        y: -0.370437595235
        z: 1.94508802105
      rotation: 
        x: 0.999605007899
        y: 0.00679419313948
        z: 0.026799068381
        w: -0.00504748017151
---
transforms: 
  - 
    header: 
      seq: 0
      stamp: 
        secs: 1627505023
        nsecs: 387570218
      frame_id: "cam_0_optical_frame"
    child_frame_id: "/ar_marker_4"
    transform: 
      translation: 
        x: -0.357574267711
        y: 0.319305488787
        z: 1.21240717104
      rotation: 
        x: 0.999961896329
        y: 0.00839065299976
        z: 0.00237425186745
        w: 0.000407138051712
---
transforms: 
  - 
    header: 
      seq: 0
      stamp: 
        secs: 1627505023
        nsecs: 337611454
      frame_id: "marker_0"
    child_frame_id: "/base_link"
    transform: 
      translation: 
        x: 2.07719291836
        y: 0.60933446159
        z: 0.371736632456
      rotation: 
        x: 0.520371844167
        y: -0.486181795149
        z: -0.486089647737
        w: 0.506514817381
---
transforms: 
  - 
    header: 
      seq: 0
      stamp: 
        secs: 1627505023
        nsecs: 337611454
      frame_id: "marker_4"
    child_frame_id: "/base_link"
    transform: 
      translation: 
        x: 1.34404795523
        y: 0.357809624918
        z: -0.31813542359
      rotation: 
        x: 0.506829345537
        y: -0.495190457492
        z: -0.501508519033
        w: 0.4963865738
---
transforms: 
  - 
    header: 
      seq: 153866
      stamp: 
        secs: 1627505023
        nsecs: 519519387
      frame_id: "world"
    child_frame_id: "MiniAHRS"
    transform: 
      translation: 
        x: 0.0
        y: 0.0
        z: 0.0
      rotation: 
        x: -0.01128691247
        y: 0.00191223182692
        z: 0.409871849761
        w: 0.912071277779
---
transforms: 
  - 
    header: 
      seq: 153867
      stamp: 
        secs: 1627505023
        nsecs: 519826881
      frame_id: "world"
    child_frame_id: "MiniAHRS"
    transform: 
      translation: 
        x: 0.0
        y: 0.0
        z: 0.0
      rotation: 
        x: -0.01128691247
        y: 0.00191223182692
        z: 0.409871849761
        w: 0.912071277779
---
transforms: 
  - 
    header: 
      seq: 153868
      stamp: 
        secs: 1627505023
        nsecs: 519962666
      frame_id: "world"
    child_frame_id: "MiniAHRS"
    transform: 
      translation: 
        x: 0.0
        y: 0.0
        z: 0.0
      rotation: 
        x: -0.0112870793007
        y: 0.00191124685071
        z: 0.409951441434
        w: 0.91203550624
---
transforms: 
  - 
    header: 
      seq: 153869
      stamp: 
        secs: 1627505023
        nsecs: 520076727
      frame_id: "world"
    child_frame_id: "MiniAHRS"
    transform: 
      translation: 
        x: 0.0
        y: 0.0
        z: 0.0
      rotation: 
        x: -0.0112870793007
        y: 0.00191124685071
        z: 0.409951441434
        w: 0.91203550624
---
transforms: 
  - 
    header: 
      seq: 153870
      stamp: 
        secs: 1627505023
        nsecs: 520188993
      frame_id: "world"
    child_frame_id: "MiniAHRS"
    transform: 
      translation: 
        x: 0.0
        y: 0.0
        z: 0.0
      rotation: 
        x: -0.0113228446234
        y: 0.00199084129098
        z: 0.409951969106
        w: 0.912034655464
---
transforms: 
  - 
    header: 
      seq: 153871
      stamp: 
        secs: 1627505023
        nsecs: 520316550
      frame_id: "world"
    child_frame_id: "MiniAHRS"
    transform: 
      translation: 
        x: 0.0
        y: 0.0
        z: 0.0
      rotation: 
        x: -0.0113228446234
        y: 0.00199084129098
        z: 0.409951969106
        w: 0.912034655464
---
transforms: 
  - 
    header: 
      seq: 153872
      stamp: 
        secs: 1627505023
        nsecs: 520440266
      frame_id: "world"
    child_frame_id: "MiniAHRS"
    transform: 
      translation: 
        x: 0.0
        y: 0.0
        z: 0.0
      rotation: 
        x: -0.0113228446234
        y: 0.00199084129098
        z: 0.409951969106
        w: 0.912034655464
---
transforms: 
  - 
    header: 
      seq: 153873
      stamp: 
        secs: 1627505023
        nsecs: 520557822
      frame_id: "world"
    child_frame_id: "MiniAHRS"
    transform: 
      translation: 
        x: 0.0
        y: 0.0
        z: 0.0
      rotation: 
        x: -0.0114026051867
        y: 0.00195407116769
        z: 0.410031729669
        w: 0.91199788534
---
transforms: 
  - 
    header: 
      seq: 153874
      stamp: 
        secs: 1627505023
        nsecs: 520671870
      frame_id: "world"
    child_frame_id: "MiniAHRS"
    transform: 
      translation: 
        x: 0.0
        y: 0.0
        z: 0.0
      rotation: 
        x: -0.0114026051867
        y: 0.00195407116769
        z: 0.410031729669
        w: 0.91199788534
---
transforms: 
  - 
    header: 
      seq: 153875
      stamp: 
        secs: 1627505023
        nsecs: 520785938
      frame_id: "world"
    child_frame_id: "MiniAHRS"
    transform: 
      translation: 
        x: 0.0
        y: 0.0
        z: 0.0
      rotation: 
        x: -0.0114026051867
        y: 0.00195407116769
        z: 0.410031729669
        w: 0.91199788534
---
transforms: 
  - 
    header: 
      seq: 153876
      stamp: 
        secs: 1627505023
        nsecs: 520918623
      frame_id: "world"
    child_frame_id: "MiniAHRS"
    transform: 
      translation: 
        x: 0.0
        y: 0.0
        z: 0.0
      rotation: 
        x: -0.0114026051867
        y: 0.00195407116769
        z: 0.410031729669
        w: 0.91199788534
---
transforms: 
  - 
    header: 
      seq: 153877
      stamp: 
        secs: 1627505023
        nsecs: 521060918
      frame_id: "world"
    child_frame_id: "MiniAHRS"
    transform: 
      translation: 
        x: 0.0
        y: 0.0
        z: 0.0
      rotation: 
        x: -0.0114026051867
        y: 0.00195407116769
        z: 0.410031729669
        w: 0.91199788534
---
transforms: 
  - 
    header: 
      seq: 0
      stamp: 
        secs: 1627505023
        nsecs: 387570218
      frame_id: "marker_0"
    child_frame_id: "/base_link"
    transform: 
      translation: 
        x: 2.07765721395
        y: 0.610073088371
        z: 0.371986403327
      rotation: 
        x: 0.519510208595
        y: -0.485524744132
        z: -0.486867649475
        w: 0.507281734242
---
transforms: 
  - 
    header: 
      seq: 0
      stamp: 
        secs: 1627505023
        nsecs: 387570218
      frame_id: "marker_4"
    child_frame_id: "/base_link"
    transform: 
      translation: 
        x: 1.34572592768
        y: 0.358539828727
        z: -0.318339915331
      rotation: 
        x: 0.50555703315
        y: -0.49439158981
        z: -0.502793622838
        w: 0.497179660678
---
transforms: 
  - 
    header: 
      seq: 0
      stamp: 
        secs: 1627505023
        nsecs: 438708882
      frame_id: "cam_0_optical_frame"
    child_frame_id: "/ar_marker_0"
    transform: 
      translation: 
        x: -0.609119792517
        y: -0.370661033949
        z: 1.94463474306
      rotation: 
        x: 0.999602598066
        y: 0.00703067232029
        z: 0.0265690072285
        w: -0.00626924575299
---
transforms: 
  - 
    header: 
      seq: 0
      stamp: 
        secs: 1627505023
        nsecs: 438708882
      frame_id: "cam_0_optical_frame"
    child_frame_id: "/ar_marker_4"
    transform: 
      translation: 
        x: -0.357751255894
        y: 0.318816652287
        z: 1.21129392218
      rotation: 
        x: 0.999955022725
        y: 0.00852935725627
        z: 0.00413301269168
        w: -0.000347560240722
---
transforms: 
  - 
    header: 
      seq: 153878
      stamp: 
        secs: 1627505023
        nsecs: 566882309
      frame_id: "world"
    child_frame_id: "MiniAHRS"
    transform: 
      translation: 
        x: 0.0
        y: 0.0
        z: 0.0
      rotation: 
        x: -0.0114026051867
        y: 0.00195407116769
        z: 0.410031729669
        w: 0.91199788534
---
transforms: 
  - 
    header: 
      seq: 153879
      stamp: 
        secs: 1627505023
        nsecs: 567177163
      frame_id: "world"
    child_frame_id: "MiniAHRS"
    transform: 
      translation: 
        x: 0.0
        y: 0.0
        z: 0.0
      rotation: 
        x: -0.0114027756681
        y: 0.00195307609523
        z: 0.410111314937
        w: 0.911962099849
---
transforms: 
  - 
    header: 
      seq: 153880
      stamp: 
        secs: 1627505023
        nsecs: 567308810
      frame_id: "world"
    child_frame_id: "MiniAHRS"
    transform: 
      translation: 
        x: 0.0
        y: 0.0
        z: 0.0
      rotation: 
        x: -0.0114027756681
        y: 0.00195307609523
        z: 0.410111314937
        w: 0.911962099849
---
transforms: 
  - 
    header: 
      seq: 153881
      stamp: 
        secs: 1627505023
        nsecs: 567422653
      frame_id: "world"
    child_frame_id: "MiniAHRS"
    transform: 
      translation: 
        x: 0.0
        y: 0.0
        z: 0.0
      rotation: 
        x: -0.0114027756681
        y: 0.00195307609523
        z: 0.410111314937
        w: 0.911962099849
---
transforms: 
  - 
    header: 
      seq: 153882
      stamp: 
        secs: 1627505023
        nsecs: 567534875
      frame_id: "world"
    child_frame_id: "MiniAHRS"
    transform: 
      translation: 
        x: 0.0
        y: 0.0
        z: 0.0
      rotation: 
        x: -0.0114027756681
        y: 0.00195307609523
        z: 0.410111314937
        w: 0.911962099849
---
transforms: 
  - 
    header: 
      seq: 153883
      stamp: 
        secs: 1627505023
        nsecs: 567665942
      frame_id: "world"
    child_frame_id: "MiniAHRS"
    transform: 
      translation: 
        x: 0.0
        y: 0.0
        z: 0.0
      rotation: 
        x: -0.0114027756681
        y: 0.00195307609523
        z: 0.410111314937
        w: 0.911962099849
---
transforms: 
  - 
    header: 
      seq: 153884
      stamp: 
        secs: 1627505023
        nsecs: 567776095
      frame_id: "world"
    child_frame_id: "MiniAHRS"
    transform: 
      translation: 
        x: 0.0
        y: 0.0
        z: 0.0
      rotation: 
        x: -0.0114027756681
        y: 0.00195307609523
        z: 0.410111314937
        w: 0.911962099849
---
transforms: 
  - 
    header: 
      seq: 153885
      stamp: 
        secs: 1627505023
        nsecs: 567910200
      frame_id: "world"
    child_frame_id: "MiniAHRS"
    transform: 
      translation: 
        x: 0.0
        y: 0.0
        z: 0.0
      rotation: 
        x: -0.0114029460628
        y: 0.0019520810079
        z: 0.410190897082
        w: 0.911926307413
---
transforms: 
  - 
    header: 
      seq: 153886
      stamp: 
        secs: 1627505023
        nsecs: 568031067
      frame_id: "world"
    child_frame_id: "MiniAHRS"
    transform: 
      translation: 
        x: 0.0
        y: 0.0
        z: 0.0
      rotation: 
        x: -0.0114029460628
        y: 0.0019520810079
        z: 0.410190897082
        w: 0.911926307413
---
transforms: 
  - 
    header: 
      seq: 153887
      stamp: 
        secs: 1627505023
        nsecs: 568142663
      frame_id: "world"
    child_frame_id: "MiniAHRS"
    transform: 
      translation: 
        x: 0.0
        y: 0.0
        z: 0.0
      rotation: 
        x: -0.0114029460628
        y: 0.0019520810079
        z: 0.410190897082
        w: 0.911926307413
---
transforms: 
  - 
    header: 
      seq: 153888
      stamp: 
        secs: 1627505023
        nsecs: 568253171
      frame_id: "world"
    child_frame_id: "MiniAHRS"
    transform: 
      translation: 
        x: 0.0
        y: 0.0
        z: 0.0
      rotation: 
        x: -0.0114029460628
        y: 0.0019520810079
        z: 0.410190897082
        w: 0.911926307413
---
transforms: 
  - 
    header: 
      seq: 153889
      stamp: 
        secs: 1627505023
        nsecs: 568363559
      frame_id: "world"
    child_frame_id: "MiniAHRS"
    transform: 
      translation: 
        x: 0.0
        y: 0.0
        z: 0.0
      rotation: 
        x: -0.0114029460628
        y: 0.0019520810079
        z: 0.410190897082
        w: 0.911926307413
---
transforms: 
  - 
    header: 
      seq: 0
      stamp: 
        secs: 1627505023
        nsecs: 438708882
      frame_id: "marker_0"
    child_frame_id: "/base_link"
    transform: 
      translation: 
        x: 2.07720328435
        y: 0.610667928432
        z: 0.372209481012
      rotation: 
        x: 0.520123185895
        y: -0.486130632336
        z: -0.486488924652
        w: 0.506435984099
---
transforms: 
  - 
    header: 
      seq: 0
      stamp: 
        secs: 1627505023
        nsecs: 438708882
      frame_id: "marker_4"
    child_frame_id: "/base_link"
    transform: 
      translation: 
        x: 1.34461214931
        y: 0.358715930034
        z: -0.317851965495
      rotation: 
        x: 0.506878974882
        y: -0.493816414174
        z: -0.501602111166
        w: 0.497608657469
---
transforms: 
  - 
    header: 
      seq: 0
      stamp: 
        secs: 1627505023
        nsecs: 487645342
      frame_id: "cam_0_optical_frame"
    child_frame_id: "/ar_marker_0"
    transform: 
      translation: 
        x: -0.609692346872
        y: -0.370944319985
        z: 1.94433575674
      rotation: 
        x: 0.999592874147
        y: 0.0070914931315
        z: 0.0267171159582
        w: -0.00707052995516
---
transforms: 
  - 
    header: 
      seq: 0
      stamp: 
        secs: 1627505023
        nsecs: 487645342
      frame_id: "cam_0_optical_frame"
    child_frame_id: "/ar_marker_4"
    transform: 
      translation: 
        x: -0.357958771446
        y: 0.318420132142
        z: 1.21130376989
      rotation: 
        x: 0.999947785145
        y: 0.00917780234041
        z: 0.00447690298603
        w: 0.000390213995707
---
transforms: 
  - 
    header: 
      seq: 153890
      stamp: 
        secs: 1627505023
        nsecs: 620669022
      frame_id: "world"
    child_frame_id: "MiniAHRS"
    transform: 
      translation: 
        x: 0.0
        y: 0.0
        z: 0.0
      rotation: 
        x: -0.0114031163705
        y: 0.0019510859057
        z: 0.410270476103
        w: 0.911890508032
---
transforms: 
  - 
    header: 
      seq: 153891
      stamp: 
        secs: 1627505023
        nsecs: 621819752
      frame_id: "world"
    child_frame_id: "MiniAHRS"
    transform: 
      translation: 
        x: 0.0
        y: 0.0
        z: 0.0
      rotation: 
        x: -0.0114031163705
        y: 0.0019510859057
        z: 0.410270476103
        w: 0.911890508032
---
transforms: 
  - 
    header: 
      seq: 153892
      stamp: 
        secs: 1627505023
        nsecs: 621838149
      frame_id: "world"
    child_frame_id: "MiniAHRS"
    transform: 
      translation: 
        x: 0.0
        y: 0.0
        z: 0.0
      rotation: 
        x: -0.0114031163705
        y: 0.0019510859057
        z: 0.410270476103
        w: 0.911890508032
---
transforms: 
  - 
    header: 
      seq: 153893
      stamp: 
        secs: 1627505023
        nsecs: 621847930
      frame_id: "world"
    child_frame_id: "MiniAHRS"
    transform: 
      translation: 
        x: 0.0
        y: 0.0
        z: 0.0
      rotation: 
        x: -0.0114031163705
        y: 0.0019510859057
        z: 0.410270476103
        w: 0.911890508032
---
transforms: 
  - 
    header: 
      seq: 153894
      stamp: 
        secs: 1627505023
        nsecs: 621857555
      frame_id: "world"
    child_frame_id: "MiniAHRS"
    transform: 
      translation: 
        x: 0.0
        y: 0.0
        z: 0.0
      rotation: 
        x: -0.0114031163705
        y: 0.0019510859057
        z: 0.410270476103
        w: 0.911890508032
---
transforms: 
  - 
    header: 
      seq: 153895
      stamp: 
        secs: 1627505023
        nsecs: 621867697
      frame_id: "world"
    child_frame_id: "MiniAHRS"
    transform: 
      translation: 
        x: 0.0
        y: 0.0
        z: 0.0
      rotation: 
        x: -0.0114031163705
        y: 0.0019510859057
        z: 0.410270476103
        w: 0.911890508032
---
transforms: 
  - 
    header: 
      seq: 153896
      stamp: 
        secs: 1627505023
        nsecs: 621879358
      frame_id: "world"
    child_frame_id: "MiniAHRS"
    transform: 
      translation: 
        x: 0.0
        y: 0.0
        z: 0.0
      rotation: 
        x: -0.0114032865915
        y: 0.00195009078864
        z: 0.410350051999
        w: 0.911854701707
---
transforms: 
  - 
    header: 
      seq: 153897
      stamp: 
        secs: 1627505023
        nsecs: 621889237
      frame_id: "world"
    child_frame_id: "MiniAHRS"
    transform: 
      translation: 
        x: 0.0
        y: 0.0
        z: 0.0
      rotation: 
        x: -0.0114032865915
        y: 0.00195009078864
        z: 0.410350051999
        w: 0.911854701707
---
transforms: 
  - 
    header: 
      seq: 0
      stamp: 
        secs: 1627505023
        nsecs: 487645342
      frame_id: "marker_0"
    child_frame_id: "/base_link"
    transform: 
      translation: 
        x: 2.07690361669
        y: 0.611240244335
        z: 0.372492528868
      rotation: 
        x: 0.520623367827
        y: -0.486421604474
        z: -0.48603972165
        w: 0.506073829151
---
transforms: 
  - 
    header: 
      seq: 0
      stamp: 
        secs: 1627505023
        nsecs: 487645342
      frame_id: "marker_4"
    child_frame_id: "/base_link"
    transform: 
      translation: 
        x: 1.34462151601
        y: 0.358923453111
        z: -0.317455437635
      rotation: 
        x: 0.507002496871
        y: -0.4929477762
        z: -0.502119522627
        w: 0.497822200291
---
transforms: 
  - 
    header: 
      seq: 153898
      stamp: 
        secs: 1627505023
        nsecs: 621899291
      frame_id: "world"
    child_frame_id: "MiniAHRS"
    transform: 
      translation: 
        x: 0.0
        y: 0.0
        z: 0.0
      rotation: 
        x: -0.0114390864792
        y: 0.0020296695546
        z: 0.41035058312
        w: 0.911853840632
---
transforms: 
  - 
    header: 
      seq: 153899
      stamp: 
        secs: 1627505023
        nsecs: 621908746
      frame_id: "world"
    child_frame_id: "MiniAHRS"
    transform: 
      translation: 
        x: 0.0
        y: 0.0
        z: 0.0
      rotation: 
        x: -0.0114390864792
        y: 0.0020296695546
        z: 0.41035058312
        w: 0.911853840632
---
transforms: 
  - 
    header: 
      seq: 153900
      stamp: 
        secs: 1627505023
        nsecs: 621918524
      frame_id: "world"
    child_frame_id: "MiniAHRS"
    transform: 
      translation: 
        x: 0.0
        y: 0.0
        z: 0.0
      rotation: 
        x: -0.0114390864792
        y: 0.0020296695546
        z: 0.41035058312
        w: 0.911853840632
---
transforms: 
  - 
    header: 
      seq: 0
      stamp: 
        secs: 1627505023
        nsecs: 537648173
      frame_id: "cam_0_optical_frame"
    child_frame_id: "/ar_marker_0"
    transform: 
      translation: 
        x: -0.610208662657
        y: -0.371192206893
        z: 1.94446628325
      rotation: 
        x: 0.999587175613
        y: 0.00704061101159
        z: 0.0273430065687
        w: -0.00531677897012
---
transforms: 
  - 
    header: 
      seq: 0
      stamp: 
        secs: 1627505023
        nsecs: 537648173
      frame_id: "cam_0_optical_frame"
    child_frame_id: "/ar_marker_4"
    transform: 
      translation: 
        x: -0.358237961786
        y: 0.318129513811
        z: 1.21082014718
      rotation: 
        x: 0.999947957079
        y: 0.00906959289317
        z: 0.00443855844658
        w: -0.00145767497292
---
transforms: 
  - 
    header: 
      seq: 153901
      stamp: 
        secs: 1627505023
        nsecs: 661517993
      frame_id: "world"
    child_frame_id: "MiniAHRS"
    transform: 
      translation: 
        x: 0.0
        y: 0.0
        z: 0.0
      rotation: 
        x: -0.0114390864792
        y: 0.0020296695546
        z: 0.41035058312
        w: 0.911853840632
---
transforms: 
  - 
    header: 
      seq: 153902
      stamp: 
        secs: 1627505023
        nsecs: 661585684
      frame_id: "world"
    child_frame_id: "MiniAHRS"
    transform: 
      translation: 
        x: 0.0
        y: 0.0
        z: 0.0
      rotation: 
        x: -0.0114392635577
        y: 0.00202867129826
        z: 0.410430155816
        w: 0.911818027316
---
transforms: 
  - 
    header: 
      seq: 153903
      stamp: 
        secs: 1627505023
        nsecs: 661599330
      frame_id: "world"
    child_frame_id: "MiniAHRS"
    transform: 
      translation: 
        x: 0.0
        y: 0.0
        z: 0.0
      rotation: 
        x: -0.0114392635577
        y: 0.00202867129826
        z: 0.410430155816
        w: 0.911818027316
---
transforms: 
  - 
    header: 
      seq: 153904
      stamp: 
        secs: 1627505023
        nsecs: 661609335
      frame_id: "world"
    child_frame_id: "MiniAHRS"
    transform: 
      translation: 
        x: 0.0
        y: 0.0
        z: 0.0
      rotation: 
        x: -0.0114392635577
        y: 0.00202867129826
        z: 0.410430155816
        w: 0.911818027316
---
transforms: 
  - 
    header: 
      seq: 153905
      stamp: 
        secs: 1627505023
        nsecs: 661621842
      frame_id: "world"
    child_frame_id: "MiniAHRS"
    transform: 
      translation: 
        x: 0.0
        y: 0.0
        z: 0.0
      rotation: 
        x: -0.0114392635577
        y: 0.00202867129826
        z: 0.410430155816
        w: 0.911818027316
---
transforms: 
  - 
    header: 
      seq: 153906
      stamp: 
        secs: 1627505023
        nsecs: 661632351
      frame_id: "world"
    child_frame_id: "MiniAHRS"
    transform: 
      translation: 
        x: 0.0
        y: 0.0
        z: 0.0
      rotation: 
        x: -0.0114392635577
        y: 0.00202867129826
        z: 0.410430155816
        w: 0.911818027316
---
transforms: 
  - 
    header: 
      seq: 153907
      stamp: 
        secs: 1627505023
        nsecs: 661716505
      frame_id: "world"
    child_frame_id: "MiniAHRS"
    transform: 
      translation: 
        x: 0.0
        y: 0.0
        z: 0.0
      rotation: 
        x: -0.0114392635577
        y: 0.00202867129826
        z: 0.410430155816
        w: 0.911818027316
---
transforms: 
  - 
    header: 
      seq: 153908
      stamp: 
        secs: 1627505023
        nsecs: 661728038
      frame_id: "world"
    child_frame_id: "MiniAHRS"
    transform: 
      translation: 
        x: 0.0
        y: 0.0
        z: 0.0
      rotation: 
        x: -0.0114394405491
        y: 0.00202767302647
        z: 0.410509725387
        w: 0.911782207056
---
transforms: 
  - 
    header: 
      seq: 153909
      stamp: 
        secs: 1627505023
        nsecs: 661739421
      frame_id: "world"
    child_frame_id: "MiniAHRS"
    transform: 
      translation: 
        x: 0.0
        y: 0.0
        z: 0.0
      rotation: 
        x: -0.0114394405491
        y: 0.00202767302647
        z: 0.410509725387
        w: 0.911782207056
---
transforms: 
  - 
    header: 
      seq: 153910
      stamp: 
        secs: 1627505023
        nsecs: 661749662
      frame_id: "world"
    child_frame_id: "MiniAHRS"
    transform: 
      translation: 
        x: 0.0
        y: 0.0
        z: 0.0
      rotation: 
        x: -0.0114394405491
        y: 0.00202767302647
        z: 0.410509725387
        w: 0.911782207056
---
transforms: 
  - 
    header: 
      seq: 153911
      stamp: 
        secs: 1627505023
        nsecs: 661761086
      frame_id: "world"
    child_frame_id: "MiniAHRS"
    transform: 
      translation: 
        x: 0.0
        y: 0.0
        z: 0.0
      rotation: 
        x: -0.0114394405491
        y: 0.00202767302647
        z: 0.410509725387
        w: 0.911782207056
---
transforms: 
  - 
    header: 
      seq: 153912
      stamp: 
        secs: 1627505023
        nsecs: 661771217
      frame_id: "world"
    child_frame_id: "MiniAHRS"
    transform: 
      translation: 
        x: 0.0
        y: 0.0
        z: 0.0
      rotation: 
        x: -0.0114394405491
        y: 0.00202767302647
        z: 0.410509725387
        w: 0.911782207056
---
transforms: 
  - 
    header: 
      seq: 0
      stamp: 
        secs: 1627505023
        nsecs: 537648173
      frame_id: "marker_0"
    child_frame_id: "/base_link"
    transform: 
      translation: 
        x: 2.07703353456
        y: 0.611756663741
        z: 0.372740519639
      rotation: 
        x: 0.520030896123
        y: -0.485255094108
        z: -0.486575114302
        w: 0.507286919663
---
transforms: 
  - 
    header: 
      seq: 0
      stamp: 
        secs: 1627505023
        nsecs: 537648173
      frame_id: "marker_4"
    child_frame_id: "/base_link"
    transform: 
      translation: 
        x: 1.34413743985
        y: 0.359202258057
        z: -0.317165204517
      rotation: 
        x: 0.50785326539
        y: -0.493944390962
        z: -0.501160747165
        w: 0.496932495387
---
transforms: 
  - 
    header: 
      seq: 153913
      stamp: 
        secs: 1627505023
        nsecs: 708757132
      frame_id: "world"
    child_frame_id: "MiniAHRS"
    transform: 
      translation: 
        x: 0.0
        y: 0.0
        z: 0.0
      rotation: 
        x: -0.0114394405491
        y: 0.00202767302647
        z: 0.410509725387
        w: 0.911782207056
---
transforms: 
  - 
    header: 
      seq: 153914
      stamp: 
        secs: 1627505023
        nsecs: 708821799
      frame_id: "world"
    child_frame_id: "MiniAHRS"
    transform: 
      translation: 
        x: 0.0
        y: 0.0
        z: 0.0
      rotation: 
        x: -0.0114396174534
        y: 0.00202667473924
        z: 0.410589291832
        w: 0.911746379853
---
transforms: 
  - 
    header: 
      seq: 153915
      stamp: 
        secs: 1627505023
        nsecs: 708832954
      frame_id: "world"
    child_frame_id: "MiniAHRS"
    transform: 
      translation: 
        x: 0.0
        y: 0.0
        z: 0.0
      rotation: 
        x: -0.0114396174534
        y: 0.00202667473924
        z: 0.410589291832
        w: 0.911746379853
---
transforms: 
  - 
    header: 
      seq: 153916
      stamp: 
        secs: 1627505023
        nsecs: 708844774
      frame_id: "world"
    child_frame_id: "MiniAHRS"
    transform: 
      translation: 
        x: 0.0
        y: 0.0
        z: 0.0
      rotation: 
        x: -0.0114396174534
        y: 0.00202667473924
        z: 0.410589291832
        w: 0.911746379853
---
transforms: 
  - 
    header: 
      seq: 153917
      stamp: 
        secs: 1627505023
        nsecs: 708855061
      frame_id: "world"
    child_frame_id: "MiniAHRS"
    transform: 
      translation: 
        x: 0.0
        y: 0.0
        z: 0.0
      rotation: 
        x: -0.0114396174534
        y: 0.00202667473924
        z: 0.410589291832
        w: 0.911746379853
---
transforms: 
  - 
    header: 
      seq: 153918
      stamp: 
        secs: 1627505023
        nsecs: 708949479
      frame_id: "world"
    child_frame_id: "MiniAHRS"
    transform: 
      translation: 
        x: 0.0
        y: 0.0
        z: 0.0
      rotation: 
        x: -0.0114396174534
        y: 0.00202667473924
        z: 0.410589291832
        w: 0.911746379853
---
transforms: 
  - 
    header: 
      seq: 153919
      stamp: 
        secs: 1627505023
        nsecs: 708961710
      frame_id: "world"
    child_frame_id: "MiniAHRS"
    transform: 
      translation: 
        x: 0.0
        y: 0.0
        z: 0.0
      rotation: 
        x: -0.0114396174534
        y: 0.00202667473924
        z: 0.410589291832
        w: 0.911746379853
---
transforms: 
  - 
    header: 
      seq: 153920
      stamp: 
        secs: 1627505023
        nsecs: 708971638
      frame_id: "world"
    child_frame_id: "MiniAHRS"
    transform: 
      translation: 
        x: 0.0
        y: 0.0
        z: 0.0
      rotation: 
        x: -0.0114396174534
        y: 0.00202667473924
        z: 0.410589291832
        w: 0.911746379853
---
transforms: 
  - 
    header: 
      seq: 153921
      stamp: 
        secs: 1627505023
        nsecs: 708981261
      frame_id: "world"
    child_frame_id: "MiniAHRS"
    transform: 
      translation: 
        x: 0.0
        y: 0.0
        z: 0.0
      rotation: 
        x: -0.0114396174534
        y: 0.00202667473924
        z: 0.410589291832
        w: 0.911746379853
---
transforms: 
  - 
    header: 
      seq: 153922
      stamp: 
        secs: 1627505023
        nsecs: 708991812
      frame_id: "world"
    child_frame_id: "MiniAHRS"
    transform: 
      translation: 
        x: 0.0
        y: 0.0
        z: 0.0
      rotation: 
        x: -0.0114396174534
        y: 0.00202667473924
        z: 0.410589291832
        w: 0.911746379853
---
transforms: 
  - 
    header: 
      seq: 153923
      stamp: 
        secs: 1627505023
        nsecs: 709002128
      frame_id: "world"
    child_frame_id: "MiniAHRS"
    transform: 
      translation: 
        x: 0.0
        y: 0.0
        z: 0.0
      rotation: 
        x: -0.0114397942706
        y: 0.00202567643658
        z: 0.410668855149
        w: 0.911710545706
---
transforms: 
  - 
    header: 
      seq: 153924
      stamp: 
        secs: 1627505023
        nsecs: 709011857
      frame_id: "world"
    child_frame_id: "MiniAHRS"
    transform: 
      translation: 
        x: 0.0
        y: 0.0
        z: 0.0
      rotation: 
        x: -0.0114397942706
        y: 0.00202567643658
        z: 0.410668855149
        w: 0.911710545706
---
transforms: 
  - 
    header: 
      seq: 0
      stamp: 
        secs: 1627505023
        nsecs: 590806435
      frame_id: "cam_0_optical_frame"
    child_frame_id: "/ar_marker_0"
    transform: 
      translation: 
        x: -0.610591856485
        y: -0.371401592132
        z: 1.9437899057
      rotation: 
        x: 0.999568827621
        y: 0.00727087677674
        z: 0.0277198977499
        w: -0.00639534731038
---
transforms: 
  - 
    header: 
      seq: 0
      stamp: 
        secs: 1627505023
        nsecs: 590806435
      frame_id: "cam_0_optical_frame"
    child_frame_id: "/ar_marker_4"
    transform: 
      translation: 
        x: -0.358473067223
        y: 0.31794721958
        z: 1.21104855273
      rotation: 
        x: 0.999952508771
        y: 0.00881586345555
        z: 0.00410625809082
        w: -0.000631979211153
---
transforms: 
  - 
    header: 
      seq: 0
      stamp: 
        secs: 1627505023
        nsecs: 590806435
      frame_id: "marker_0"
    child_frame_id: "/base_link"
    transform: 
      translation: 
        x: 2.07635668555
        y: 0.612139318698
        z: 0.372949366194
      rotation: 
        x: 0.520864427193
        y: -0.485481104742
        z: -0.485953200804
        w: 0.506811436386
---
transforms: 
  - 
    header: 
      seq: 0
      stamp: 
        secs: 1627505023
        nsecs: 590806435
      frame_id: "marker_4"
    child_frame_id: "/base_link"
    transform: 
      translation: 
        x: 1.34436551286
        y: 0.35943754519
        z: -0.316982728458
      rotation: 
        x: 0.507149812751
        y: -0.493827263558
        z: -0.501615286757
        w: 0.497308561443
---
transforms: 
  - 
    header: 
      seq: 153925
      stamp: 
        secs: 1627505023
        nsecs: 755688531
      frame_id: "world"
    child_frame_id: "MiniAHRS"
    transform: 
      translation: 
        x: 0.0
        y: 0.0
        z: 0.0
      rotation: 
        x: -0.0114397942706
        y: 0.00202567643658
        z: 0.410668855149
        w: 0.911710545706
---
transforms: 
  - 
    header: 
      seq: 153926
      stamp: 
        secs: 1627505023
        nsecs: 755752087
      frame_id: "world"
    child_frame_id: "MiniAHRS"
    transform: 
      translation: 
        x: 0.0
        y: 0.0
        z: 0.0
      rotation: 
        x: -0.0114397942706
        y: 0.00202567643658
        z: 0.410668855149
        w: 0.911710545706
---
transforms: 
  - 
    header: 
      seq: 153927
      stamp: 
        secs: 1627505023
        nsecs: 755762616
      frame_id: "world"
    child_frame_id: "MiniAHRS"
    transform: 
      translation: 
        x: 0.0
        y: 0.0
        z: 0.0
      rotation: 
        x: -0.0114397942706
        y: 0.00202567643658
        z: 0.410668855149
        w: 0.911710545706
---
transforms: 
  - 
    header: 
      seq: 153928
      stamp: 
        secs: 1627505023
        nsecs: 755772924
      frame_id: "world"
    child_frame_id: "MiniAHRS"
    transform: 
      translation: 
        x: 0.0
        y: 0.0
        z: 0.0
      rotation: 
        x: -0.0114399710007
        y: 0.00202467811849
        z: 0.41074841534
        w: 0.911674704617
---
transforms: 
  - 
    header: 
      seq: 153929
      stamp: 
        secs: 1627505023
        nsecs: 755786139
      frame_id: "world"
    child_frame_id: "MiniAHRS"
    transform: 
      translation: 
        x: 0.0
        y: 0.0
        z: 0.0
      rotation: 
        x: -0.0114399710007
        y: 0.00202467811849
        z: 0.41074841534
        w: 0.911674704617
---
transforms: 
  - 
    header: 
      seq: 153930
      stamp: 
        secs: 1627505023
        nsecs: 755890929
      frame_id: "world"
    child_frame_id: "MiniAHRS"
    transform: 
      translation: 
        x: 0.0
        y: 0.0
        z: 0.0
      rotation: 
        x: -0.0114399710007
        y: 0.00202467811849
        z: 0.41074841534
        w: 0.911674704617
---
transforms: 
  - 
    header: 
      seq: 153931
      stamp: 
        secs: 1627505023
        nsecs: 755902265
      frame_id: "world"
    child_frame_id: "MiniAHRS"
    transform: 
      translation: 
        x: 0.0
        y: 0.0
        z: 0.0
      rotation: 
        x: -0.0114399710007
        y: 0.00202467811849
        z: 0.41074841534
        w: 0.911674704617
---
transforms: 
  - 
    header: 
      seq: 153932
      stamp: 
        secs: 1627505023
        nsecs: 755911825
      frame_id: "world"
    child_frame_id: "MiniAHRS"
    transform: 
      translation: 
        x: 0.0
        y: 0.0
        z: 0.0
      rotation: 
        x: -0.0114399710007
        y: 0.00202467811849
        z: 0.41074841534
        w: 0.911674704617
---
transforms: 
  - 
    header: 
      seq: 153933
      stamp: 
        secs: 1627505023
        nsecs: 755921941
      frame_id: "world"
    child_frame_id: "MiniAHRS"
    transform: 
      translation: 
        x: 0.0
        y: 0.0
        z: 0.0
      rotation: 
        x: -0.0114401476436
        y: 0.00202367978498
        z: 0.410827972402
        w: 0.911638856584
---
transforms: 
  - 
    header: 
      seq: 153934
      stamp: 
        secs: 1627505023
        nsecs: 755933492
      frame_id: "world"
    child_frame_id: "MiniAHRS"
    transform: 
      translation: 
        x: 0.0
        y: 0.0
        z: 0.0
      rotation: 
        x: -0.0114401476436
        y: 0.00202367978498
        z: 0.410827972402
        w: 0.911638856584
---
transforms: 
  - 
    header: 
      seq: 153935
      stamp: 
        secs: 1627505023
        nsecs: 755944271
      frame_id: "world"
    child_frame_id: "MiniAHRS"
    transform: 
      translation: 
        x: 0.0
        y: 0.0
        z: 0.0
      rotation: 
        x: -0.0114401476436
        y: 0.00202367978498
        z: 0.410827972402
        w: 0.911638856584
---
transforms: 
  - 
    header: 
      seq: 153936
      stamp: 
        secs: 1627505023
        nsecs: 755953976
      frame_id: "world"
    child_frame_id: "MiniAHRS"
    transform: 
      translation: 
        x: 0.0
        y: 0.0
        z: 0.0
      rotation: 
        x: -0.0114401476436
        y: 0.00202367978498
        z: 0.410827972402
        w: 0.911638856584
---
transforms: 
  - 
    header: 
      seq: 0
      stamp: 
        secs: 1627505023
        nsecs: 637757164
      frame_id: "cam_0_optical_frame"
    child_frame_id: "/ar_marker_0"
    transform: 
      translation: 
        x: -0.611096820507
        y: -0.371476892595
        z: 1.94336307809
      rotation: 
        x: 0.999528331829
        y: 0.00700840864405
        z: 0.0291510033274
        w: -0.00664944245313
---
transforms: 
  - 
    header: 
      seq: 0
      stamp: 
        secs: 1627505023
        nsecs: 637757164
      frame_id: "cam_0_optical_frame"
    child_frame_id: "/ar_marker_4"
    transform: 
      translation: 
        x: -0.358604685
        y: 0.317570356095
        z: 1.21012376728
      rotation: 
        x: 0.999945781273
        y: 0.00897287357821
        z: 0.00478034687043
        w: -0.00225174091926
---
transforms: 
  - 
    header: 
      seq: 0
      stamp: 
        secs: 1627505023
        nsecs: 637757164
      frame_id: "marker_0"
    child_frame_id: "/base_link"
    transform: 
      translation: 
        x: 2.07592939613
        y: 0.612643942618
        z: 0.373024326739
      rotation: 
        x: 0.521554959654
        y: -0.485003589262
        z: -0.484958564874
        w: 0.507510721876
---
transforms: 
  - 
    header: 
      seq: 0
      stamp: 
        secs: 1627505023
        nsecs: 637757164
      frame_id: "marker_4"
    child_frame_id: "/base_link"
    transform: 
      translation: 
        x: 1.34344032308
        y: 0.359568426254
        z: -0.316606601524
      rotation: 
        x: 0.50837160795
        y: -0.494217523874
        z: -0.500543237339
        w: 0.496753273649
---
transforms: 
  - 
    header: 
      seq: 153937
      stamp: 
        secs: 1627505023
        nsecs: 802963511
      frame_id: "world"
    child_frame_id: "MiniAHRS"
    transform: 
      translation: 
        x: 0.0
        y: 0.0
        z: 0.0
      rotation: 
        x: -0.0114401476436
        y: 0.00202367978498
        z: 0.410827972402
        w: 0.911638856584
---
transforms: 
  - 
    header: 
      seq: 153938
      stamp: 
        secs: 1627505023
        nsecs: 803059320
      frame_id: "world"
    child_frame_id: "MiniAHRS"
    transform: 
      translation: 
        x: 0.0
        y: 0.0
        z: 0.0
      rotation: 
        x: -0.0114401476436
        y: 0.00202367978498
        z: 0.410827972402
        w: 0.911638856584
---
transforms: 
  - 
    header: 
      seq: 153939
      stamp: 
        secs: 1627505023
        nsecs: 803124190
      frame_id: "world"
    child_frame_id: "MiniAHRS"
    transform: 
      translation: 
        x: 0.0
        y: 0.0
        z: 0.0
      rotation: 
        x: -0.0114401476436
        y: 0.00202367978498
        z: 0.410827972402
        w: 0.911638856584
---
transforms: 
  - 
    header: 
      seq: 153940
      stamp: 
        secs: 1627505023
        nsecs: 803138574
      frame_id: "world"
    child_frame_id: "MiniAHRS"
    transform: 
      translation: 
        x: 0.0
        y: 0.0
        z: 0.0
      rotation: 
        x: -0.0114403241994
        y: 0.00202268143606
        z: 0.410907526336
        w: 0.911603001609
---
transforms: 
  - 
    header: 
      seq: 153941
      stamp: 
        secs: 1627505023
        nsecs: 803150373
      frame_id: "world"
    child_frame_id: "MiniAHRS"
    transform: 
      translation: 
        x: 0.0
        y: 0.0
        z: 0.0
      rotation: 
        x: -0.0114403241994
        y: 0.00202268143606
        z: 0.410907526336
        w: 0.911603001609
---
transforms: 
  - 
    header: 
      seq: 153942
      stamp: 
        secs: 1627505023
        nsecs: 803162782
      frame_id: "world"
    child_frame_id: "MiniAHRS"
    transform: 
      translation: 
        x: 0.0
        y: 0.0
        z: 0.0
      rotation: 
        x: -0.0114403241994
        y: 0.00202268143606
        z: 0.410907526336
        w: 0.911603001609
---
transforms: 
  - 
    header: 
      seq: 153943
      stamp: 
        secs: 1627505023
        nsecs: 803174702
      frame_id: "world"
    child_frame_id: "MiniAHRS"
    transform: 
      translation: 
        x: 0.0
        y: 0.0
        z: 0.0
      rotation: 
        x: -0.0114403241994
        y: 0.00202268143606
        z: 0.410907526336
        w: 0.911603001609
---
transforms: 
  - 
    header: 
      seq: 153944
      stamp: 
        secs: 1627505023
        nsecs: 803186162
      frame_id: "world"
    child_frame_id: "MiniAHRS"
    transform: 
      translation: 
        x: 0.0
        y: 0.0
        z: 0.0
      rotation: 
        x: -0.0114403241994
        y: 0.00202268143606
        z: 0.410907526336
        w: 0.911603001609
---
transforms: 
  - 
    header: 
      seq: 153945
      stamp: 
        secs: 1627505023
        nsecs: 803197292
      frame_id: "world"
    child_frame_id: "MiniAHRS"
    transform: 
      translation: 
        x: 0.0
        y: 0.0
        z: 0.0
      rotation: 
        x: -0.0114403241994
        y: 0.00202268143606
        z: 0.410907526336
        w: 0.911603001609
---
transforms: 
  - 
    header: 
      seq: 153946
      stamp: 
        secs: 1627505023
        nsecs: 803210386
      frame_id: "world"
    child_frame_id: "MiniAHRS"
    transform: 
      translation: 
        x: 0.0
        y: 0.0
        z: 0.0
      rotation: 
        x: -0.0114403241994
        y: 0.00202268143606
        z: 0.410907526336
        w: 0.911603001609
---
transforms: 
  - 
    header: 
      seq: 153947
      stamp: 
        secs: 1627505023
        nsecs: 803231908
      frame_id: "world"
    child_frame_id: "MiniAHRS"
    transform: 
      translation: 
        x: 0.0
        y: 0.0
        z: 0.0
      rotation: 
        x: -0.0114403241994
        y: 0.00202268143606
        z: 0.410907526336
        w: 0.911603001609
---
transforms: 
  - 
    header: 
      seq: 153948
      stamp: 
        secs: 1627505023
        nsecs: 803245868
      frame_id: "world"
    child_frame_id: "MiniAHRS"
    transform: 
      translation: 
        x: 0.0
        y: 0.0
        z: 0.0
      rotation: 
        x: -0.0114403241994
        y: 0.00202268143606
        z: 0.410907526336
        w: 0.911603001609
---
transforms: 
  - 
    header: 
      seq: 0
      stamp: 
        secs: 1627505023
        nsecs: 687604943
      frame_id: "cam_0_optical_frame"
    child_frame_id: "/ar_marker_0"
    transform: 
      translation: 
        x: -0.611538959847
        y: -0.371863727246
        z: 1.943831481
      rotation: 
        x: 0.99953310853
        y: 0.00699656951599
        z: 0.0292699786968
        w: -0.00528027597945
---
